{
"type": "FeatureCollection",
"crs": { "type": "name", "properties": { "name": "urn:ogc:def:crs:OGC:1.3:CRS84" } },
                                                                                
"features": [
{ "type": "Feature", "properties": { "Name": "Tjarnabyggð" }, "geometry": { "type": "Point", "coordinates": [ -21.081016379594086, 63.897956744805313 ] } },
{ "type": "Feature", "properties": { "Name": "Brautarholt" }, "geometry": { "type": "Point", "coordinates": [ -20.51954054654875, 64.022258796485872 ] } },
{ "type": "Feature", "properties": { "Name": "Vestmannaeyjar" }, "geometry": { "type": "Point", "coordinates": [ -20.278852015370159, 63.437677313128404 ] } },
{ "type": "Feature", "properties": { "Name": "Árbæjarhverfi" }, "geometry": { "type": "Point", "coordinates": [ -21.029574049126673, 63.945105411286278 ] } },
{ "type": "Feature", "properties": { "Name": "Hafnir" }, "geometry": { "type": "Point", "coordinates": [ -22.68522729526746, 63.933556129852157 ] } },
{ "type": "Feature", "properties": { "Name": "Hveragerði" }, "geometry": { "type": "Point", "coordinates": [ -21.18736020437267, 64.000753439147203 ] } },
{ "type": "Feature", "properties": { "Name": "Þorlákshöfn" }, "geometry": { "type": "Point", "coordinates": [ -21.383791620491866, 63.85477742526529 ] } },
{ "type": "Feature", "properties": { "Name": "Stokkseyri" }, "geometry": { "type": "Point", "coordinates": [ -21.055227113744003, 63.837005527052561 ] } },
{ "type": "Feature", "properties": { "Name": "Rauðalækur" }, "geometry": { "type": "Point", "coordinates": [ -20.441271070879495, 63.865725812362719 ] } },
{ "type": "Feature", "properties": { "Name": "Ásbrú" }, "geometry": { "type": "Point", "coordinates": [ -22.577304769099452, 63.968615805622228 ] } },
{ "type": "Feature", "properties": { "Name": "Vogar" }, "geometry": { "type": "Point", "coordinates": [ -22.384088832976452, 63.982041856819173 ] } },
{ "type": "Feature", "properties": { "Name": "Eyrarbakki" }, "geometry": { "type": "Point", "coordinates": [ -21.148118798945735, 63.862718703872673 ] } },
{ "type": "Feature", "properties": { "Name": "Hella" }, "geometry": { "type": "Point", "coordinates": [ -20.396549946855838, 63.836443627449547 ] } },
{ "type": "Feature", "properties": { "Name": "Þykkvibær" }, "geometry": { "type": "Point", "coordinates": [ -20.611087755827654, 63.746415240920491 ] } },
{ "type": "Feature", "properties": { "Name": "Grindavík" }, "geometry": { "type": "Point", "coordinates": [ -22.433090932540154, 63.842341863437447 ] } },
{ "type": "Feature", "properties": { "Name": "Njarðvík" }, "geometry": { "type": "Point", "coordinates": [ -22.525129394093117, 63.978626434587085 ] } },
{ "type": "Feature", "properties": { "Name": "Selfoss" }, "geometry": { "type": "Point", "coordinates": [ -20.999708109267655, 63.933143763537913 ] } },
{ "type": "Feature", "properties": { "Name": "Skógar" }, "geometry": { "type": "Point", "coordinates": [ -19.49844826255325, 63.528225284354903 ] } },
{ "type": "Feature", "properties": { "Name": "Vík" }, "geometry": { "type": "Point", "coordinates": [ -19.005794674171039, 63.41891829454633 ] } },
{ "type": "Feature", "properties": { "Name": "Hvolsvöllur" }, "geometry": { "type": "Point", "coordinates": [ -20.225377251626771, 63.751623258056355 ] } },
{ "type": "Feature", "properties": { "Name": "Nesjahverfi" }, "geometry": { "type": "Point", "coordinates": [ -15.226881401616522, 64.313830498150594 ] } },
{ "type": "Feature", "properties": { "Name": "Kirkjubæjarklaustur" }, "geometry": { "type": "Point", "coordinates": [ -18.049620873664548, 63.790449886641227 ] } },
{ "type": "Feature", "properties": { "Name": "Djúpivogur" }, "geometry": { "type": "Point", "coordinates": [ -14.289310028377509, 64.657267500887755 ] } },
{ "type": "Feature", "properties": { "Name": "Höfn" }, "geometry": { "type": "Point", "coordinates": [ -15.205911434125291, 64.252473714588589 ] } },
{ "type": "Feature", "properties": { "Name": "Flúðir" }, "geometry": { "type": "Point", "coordinates": [ -20.323422678203574, 64.134715845149813 ] } },
{ "type": "Feature", "properties": { "Name": "Laugarás" }, "geometry": { "type": "Point", "coordinates": [ -20.499433762816338, 64.116587303693535 ] } },
{ "type": "Feature", "properties": { "Name": "Reykholt" }, "geometry": { "type": "Point", "coordinates": [ -20.444555349802364, 64.178114171375498 ] } },
{ "type": "Feature", "properties": { "Name": "Borg" }, "geometry": { "type": "Point", "coordinates": [ -20.764954293246383, 64.07638302357212 ] } },
{ "type": "Feature", "properties": { "Name": "Sólheimar" }, "geometry": { "type": "Point", "coordinates": [ -20.643151504263429, 64.066800910979126 ] } },
{ "type": "Feature", "properties": { "Name": "Laugarvatn" }, "geometry": { "type": "Point", "coordinates": [ -20.733057034944146, 64.214541714320276 ] } },
{ "type": "Feature", "properties": { "Name": "Kleppjárnsreykir" }, "geometry": { "type": "Point", "coordinates": [ -21.404997930764441, 64.655422662253699 ] } },
{ "type": "Feature", "properties": { "Name": "Reykholt" }, "geometry": { "type": "Point", "coordinates": [ -21.291055366400059, 64.664507833421652 ] } },
{ "type": "Feature", "properties": { "Name": "Mosfellsdalur" }, "geometry": { "type": "Point", "coordinates": [ -21.625661277705269, 64.178478950658899 ] } },
{ "type": "Feature", "properties": { "Name": "Melahverfi" }, "geometry": { "type": "Point", "coordinates": [ -21.840492735746498, 64.381765906637455 ] } },
{ "type": "Feature", "properties": { "Name": "Grundarhverfi" }, "geometry": { "type": "Point", "coordinates": [ -21.832701303353783, 64.239928121747553 ] } },
{ "type": "Feature", "properties": { "Name": "Hvanneyri" }, "geometry": { "type": "Point", "coordinates": [ -21.763450851983684, 64.563935027405776 ] } },
{ "type": "Feature", "properties": { "Name": "Mosfellsbær" }, "geometry": { "type": "Point", "coordinates": [ -21.692692439404468, 64.166235575209484 ] } },
{ "type": "Feature", "properties": { "Name": "Innnes" }, "geometry": { "type": "Point", "coordinates": [ -22.035936661466206, 64.310101291994613 ] } },
{ "type": "Feature", "properties": { "Name": "Reykjavík" }, "geometry": { "type": "Point", "coordinates": [ -21.859122328793543, 64.13073367105585 ] } },
{ "type": "Feature", "properties": { "Name": "Kópavogur" }, "geometry": { "type": "Point", "coordinates": [ -21.868064895837566, 64.101909911619984 ] } },
{ "type": "Feature", "properties": { "Name": "Álftanes" }, "geometry": { "type": "Point", "coordinates": [ -22.020190960791258, 64.10474130868154 ] } },
{ "type": "Feature", "properties": { "Name": "Akranes" }, "geometry": { "type": "Point", "coordinates": [ -22.06637414264458, 64.318825805866766 ] } },
{ "type": "Feature", "properties": { "Name": "Garðabær" }, "geometry": { "type": "Point", "coordinates": [ -21.918440573713887, 64.091616680138571 ] } },
{ "type": "Feature", "properties": { "Name": "Hafnarfjörður" }, "geometry": { "type": "Point", "coordinates": [ -21.960618849836891, 64.062850017854217 ] } },
{ "type": "Feature", "properties": { "Name": "Borgarnes" }, "geometry": { "type": "Point", "coordinates": [ -21.908156750483439, 64.548767436492696 ] } },
{ "type": "Feature", "properties": { "Name": "Seltjarnarnes" }, "geometry": { "type": "Point", "coordinates": [ -22.004056197402122, 64.154330512421154 ] } },
{ "type": "Feature", "properties": { "Name": "Keflavík" }, "geometry": { "type": "Point", "coordinates": [ -22.56585800354053, 64.002761571678136 ] } },
{ "type": "Feature", "properties": { "Name": "Garður" }, "geometry": { "type": "Point", "coordinates": [ -22.655128082950082, 64.070764839910439 ] } },
{ "type": "Feature", "properties": { "Name": "Grundarfjörður" }, "geometry": { "type": "Point", "coordinates": [ -23.260096776397837, 64.923351083180265 ] } },
{ "type": "Feature", "properties": { "Name": "Hellissandur" }, "geometry": { "type": "Point", "coordinates": [ -23.883822432934426, 64.916943346753371 ] } },
{ "type": "Feature", "properties": { "Name": "Rif" }, "geometry": { "type": "Point", "coordinates": [ -23.81849442737067, 64.922641913778747 ] } },
{ "type": "Feature", "properties": { "Name": "Ólafsvík" }, "geometry": { "type": "Point", "coordinates": [ -23.706926086529805, 64.894316119978114 ] } },
{ "type": "Feature", "properties": { "Name": "Sandgerði" }, "geometry": { "type": "Point", "coordinates": [ -22.701816665001338, 64.036914275062003 ] } },
{ "type": "Feature", "properties": { "Name": "Stykkishólmur" }, "geometry": { "type": "Point", "coordinates": [ -22.731038413937224, 65.074402643409684 ] } },
{ "type": "Feature", "properties": { "Name": "Reykhólar" }, "geometry": { "type": "Point", "coordinates": [ -22.201381190857461, 65.447723757620224 ] } },
{ "type": "Feature", "properties": { "Name": "Borðeyri" }, "geometry": { "type": "Point", "coordinates": [ -21.096652321978212, 65.208664642049968 ] } },
{ "type": "Feature", "properties": { "Name": "Bifröst" }, "geometry": { "type": "Point", "coordinates": [ -21.551536787047201, 64.766922414372246 ] } },
{ "type": "Feature", "properties": { "Name": "Búðardalur" }, "geometry": { "type": "Point", "coordinates": [ -21.766518846456446, 65.109007331762413 ] } },
{ "type": "Feature", "properties": { "Name": "Hvammstangi" }, "geometry": { "type": "Point", "coordinates": [ -20.941533092060478, 65.398142661257893 ] } },
{ "type": "Feature", "properties": { "Name": "Laugarbakki" }, "geometry": { "type": "Point", "coordinates": [ -20.892775437983079, 65.327419924115631 ] } },
{ "type": "Feature", "properties": { "Name": "Hallormsstaður" }, "geometry": { "type": "Point", "coordinates": [ -14.742456209964418, 65.094004084850241 ] } },
{ "type": "Feature", "properties": { "Name": "Eiðar" }, "geometry": { "type": "Point", "coordinates": [ -14.34996537662305, 65.373106923250305 ] } },
{ "type": "Feature", "properties": { "Name": "Eskifjörður" }, "geometry": { "type": "Point", "coordinates": [ -14.01850072623701, 65.073358079699176 ] } },
{ "type": "Feature", "properties": { "Name": "Fáskrúðsfjörður" }, "geometry": { "type": "Point", "coordinates": [ -14.011705333975483, 64.929900573489917 ] } },
{ "type": "Feature", "properties": { "Name": "Reyðarfjörður" }, "geometry": { "type": "Point", "coordinates": [ -14.218427751962992, 65.033568316717691 ] } },
{ "type": "Feature", "properties": { "Name": "Stöðvarfjörður" }, "geometry": { "type": "Point", "coordinates": [ -13.874245848877507, 64.834091773233652 ] } },
{ "type": "Feature", "properties": { "Name": "Seyðisfjörður" }, "geometry": { "type": "Point", "coordinates": [ -14.002938652888888, 65.262437443143142 ] } },
{ "type": "Feature", "properties": { "Name": "Fellabær" }, "geometry": { "type": "Point", "coordinates": [ -14.425487972818338, 65.284812909722604 ] } },
{ "type": "Feature", "properties": { "Name": "Breiðdalsvík" }, "geometry": { "type": "Point", "coordinates": [ -14.00605998051191, 64.791312603139573 ] } },
{ "type": "Feature", "properties": { "Name": "Egilsstaðir" }, "geometry": { "type": "Point", "coordinates": [ -14.395275273906606, 65.263981294585989 ] } },
{ "type": "Feature", "properties": { "Name": "Bakkagerði" }, "geometry": { "type": "Point", "coordinates": [ -13.815018158670593, 65.526923003659107 ] } },
{ "type": "Feature", "properties": { "Name": "Vopnafjörður" }, "geometry": { "type": "Point", "coordinates": [ -14.829229131272616, 65.754465598921271 ] } },
{ "type": "Feature", "properties": { "Name": "Neskaupstaður" }, "geometry": { "type": "Point", "coordinates": [ -13.69360442270133, 65.147160769285648 ] } },
{ "type": "Feature", "properties": { "Name": "Bakkafjörður" }, "geometry": { "type": "Point", "coordinates": [ -14.803810654773288, 66.036443895750566 ] } },
{ "type": "Feature", "properties": { "Name": "Hrafnagilshverfi" }, "geometry": { "type": "Point", "coordinates": [ -18.094069578422424, 65.573545708861388 ] } },
{ "type": "Feature", "properties": { "Name": "Brúnahlíð" }, "geometry": { "type": "Point", "coordinates": [ -18.025630693036657, 65.654678526065524 ] } },
{ "type": "Feature", "properties": { "Name": "Kleifar" }, "geometry": { "type": "Point", "coordinates": [ -18.647733960849564, 66.093031370635472 ] } },
{ "type": "Feature", "properties": { "Name": "Svalbarðseyri" }, "geometry": { "type": "Point", "coordinates": [ -18.084976548667679, 65.745142033977132 ] } },
{ "type": "Feature", "properties": { "Name": "Lónsbakki" }, "geometry": { "type": "Point", "coordinates": [ -18.154752501177995, 65.703141334059239 ] } },
{ "type": "Feature", "properties": { "Name": "Kristnes" }, "geometry": { "type": "Point", "coordinates": [ -18.087281193513583, 65.595508285279394 ] } },
{ "type": "Feature", "properties": { "Name": "Hjalteyri" }, "geometry": { "type": "Point", "coordinates": [ -18.196628579043367, 65.849819868959528 ] } },
{ "type": "Feature", "properties": { "Name": "Litli-Árskógssandur" }, "geometry": { "type": "Point", "coordinates": [ -18.352900916231906, 65.944491619250456 ] } },
{ "type": "Feature", "properties": { "Name": "Hauganes" }, "geometry": { "type": "Point", "coordinates": [ -18.305820572591522, 65.924734592301519 ] } },
{ "type": "Feature", "properties": { "Name": "Laugar" }, "geometry": { "type": "Point", "coordinates": [ -17.362369957899254, 65.721584539693268 ] } },
{ "type": "Feature", "properties": { "Name": "Dalvík" }, "geometry": { "type": "Point", "coordinates": [ -18.532650257433172, 65.971914610498061 ] } },
{ "type": "Feature", "properties": { "Name": "Grenivík" }, "geometry": { "type": "Point", "coordinates": [ -18.181381137250181, 65.948350866816682 ] } },
{ "type": "Feature", "properties": { "Name": "Reykjahlíð" }, "geometry": { "type": "Point", "coordinates": [ -16.905561759180671, 65.642218447678573 ] } },
{ "type": "Feature", "properties": { "Name": "Hrísey" }, "geometry": { "type": "Point", "coordinates": [ -18.373812171381864, 65.979552248640218 ] } },
{ "type": "Feature", "properties": { "Name": "Akureyri" }, "geometry": { "type": "Point", "coordinates": [ -18.112236964670707, 65.68301331849095 ] } },
{ "type": "Feature", "properties": { "Name": "Ólafsfjörður" }, "geometry": { "type": "Point", "coordinates": [ -18.651400760927128, 66.072139111081825 ] } },
{ "type": "Feature", "properties": { "Name": "Siglufjörður" }, "geometry": { "type": "Point", "coordinates": [ -18.910600451788746, 66.149588881622762 ] } },
{ "type": "Feature", "properties": { "Name": "Húsavík" }, "geometry": { "type": "Point", "coordinates": [ -17.342131971936066, 66.044207195522162 ] } },
{ "type": "Feature", "properties": { "Name": "Skagaströnd" }, "geometry": { "type": "Point", "coordinates": [ -20.307294035152577, 65.824565371743205 ] } },
{ "type": "Feature", "properties": { "Name": "Hofsós" }, "geometry": { "type": "Point", "coordinates": [ -19.413602106179297, 65.898188097569417 ] } },
{ "type": "Feature", "properties": { "Name": "Sauðárkrókur" }, "geometry": { "type": "Point", "coordinates": [ -19.643638422898281, 65.743716967148288 ] } },
{ "type": "Feature", "properties": { "Name": "Blönduós" }, "geometry": { "type": "Point", "coordinates": [ -20.287357180564197, 65.660727534481268 ] } },
{ "type": "Feature", "properties": { "Name": "Varmahlíð" }, "geometry": { "type": "Point", "coordinates": [ -19.448329917797899, 65.552704332410869 ] } },
{ "type": "Feature", "properties": { "Name": "Hólar" }, "geometry": { "type": "Point", "coordinates": [ -19.111236190715317, 65.732318838829926 ] } },
{ "type": "Feature", "properties": { "Name": "Hólmavík" }, "geometry": { "type": "Point", "coordinates": [ -21.678965772665531, 65.70326481633677 ] } },
{ "type": "Feature", "properties": { "Name": "Drangsnes" }, "geometry": { "type": "Point", "coordinates": [ -21.441606230974394, 65.689337286772613 ] } },
{ "type": "Feature", "properties": { "Name": "Þingeyri" }, "geometry": { "type": "Point", "coordinates": [ -23.489938437614736, 65.876681606156026 ] } },
{ "type": "Feature", "properties": { "Name": "Súðavík" }, "geometry": { "type": "Point", "coordinates": [ -22.990109563946994, 66.031749588993293 ] } },
{ "type": "Feature", "properties": { "Name": "Bíldudalur" }, "geometry": { "type": "Point", "coordinates": [ -23.604854439348564, 65.682888497935508 ] } },
{ "type": "Feature", "properties": { "Name": "Tálknafjörður" }, "geometry": { "type": "Point", "coordinates": [ -23.824743035855203, 65.626972262817659 ] } },
{ "type": "Feature", "properties": { "Name": "Hnífsdalur" }, "geometry": { "type": "Point", "coordinates": [ -23.122004496772551, 66.109676527589301 ] } },
{ "type": "Feature", "properties": { "Name": "Suðureyri" }, "geometry": { "type": "Point", "coordinates": [ -23.527130750054837, 66.129456463605237 ] } },
{ "type": "Feature", "properties": { "Name": "Ísafjörður" }, "geometry": { "type": "Point", "coordinates": [ -23.144777641738361, 66.06726179960215 ] } },
{ "type": "Feature", "properties": { "Name": "Flateyri" }, "geometry": { "type": "Point", "coordinates": [ -23.512891469665803, 66.050063449158287 ] } },
{ "type": "Feature", "properties": { "Name": "Þórshöfn" }, "geometry": { "type": "Point", "coordinates": [ -15.335475317904969, 66.198930723684114 ] } },
{ "type": "Feature", "properties": { "Name": "Grímsey" }, "geometry": { "type": "Point", "coordinates": [ -18.013259845080334, 66.538541027796498 ] } },
{ "type": "Feature", "properties": { "Name": "Patreksfjörður" }, "geometry": { "type": "Point", "coordinates": [ -23.990150278396012, 65.595661908401752 ] } },
{ "type": "Feature", "properties": { "Name": "Bolungarvík" }, "geometry": { "type": "Point", "coordinates": [ -23.252414891996619, 66.157830824597468 ] } },
{ "type": "Feature", "properties": { "Name": "Raufarhöfn" }, "geometry": { "type": "Point", "coordinates": [ -15.948195736305205, 66.452744521066023 ] } },
{ "type": "Feature", "properties": { "Name": "Kópasker" }, "geometry": { "type": "Point", "coordinates": [ -16.445676153991723, 66.301113121378705 ] } }
]
}
